[
  {
    "source": "nominatim",
    "feature_class": "highway",
    "feature_code": "motorway_junction",
    "name_ar": "عميعاد",
    "name_en": "Amiad Junction",
    "alt_names": ["قاعدة عميعاد", "قاعدة_عميعاد", "Amiad", "Amiad Junction", "Amiad"],
    "district": "Safed Subdistrict",
    "governorate": "Northern District (Israel)",
    "latitude": 32.9134269,
    "longitude": 35.5435212
  },
  {
    "source": "nominatim",
    "feature_class": "natural",
    "feature_code": "lake",
    "name_ar": "بحيرة طبريا",
    "name_en": "Sea of Galilee",
    "alt_names": ["طبريا", "طبرية", "بحيرة_طبريا", "Sea of Galilee", "Lake Tiberias", "Kinneret"],
    "district": "Tiberias Subdistrict",
    "governorate": "Northern District (Israel)",
    "latitude": 32.8008444,
    "longitude": 35.5889732
  },
  {
    "source": "nominatim",
    "feature_class": "place",
    "feature_code": "town",
    "name_ar": "طبريا",
    "name_en": "Tiberias",
    "alt_names": ["طبرية", "طبريا", "Tiberias"],
    "district": "Tiberias Subdistrict",
    "governorate": "Northern District (Israel)",
    "latitude": 32.7870039,
    "longitude": 35.5187814
  },
  {
    "source": "nominatim",
    "feature_class": "place",
    "feature_code": "town",
    "name_ar": "كريات شمونة",
    "name_en": "Kiryat Shmona",
    "alt_names": ["كريات_شمونة", "Kiryat Shmona", "Qiryat Shemona"],
    "district": "Safed Subdistrict",
    "governorate": "Northern District (Israel)",
    "latitude": 33.2121315,
    "longitude": 35.5715923
  },
  {
    "source": "nominatim",
    "feature_class": "place",
    "feature_code": "town",
    "name_ar": "المطلة",
    "name_en": "Metula",
    "alt_names": ["مطلة", "المطله", "Metula"],
    "district": "Safed Subdistrict",
    "governorate": "Northern District (Israel)",
    "latitude": 33.2692138,
    "longitude": 35.5723384
  },
  {
    "source": "nominatim",
    "feature_class": "place",
    "feature_code": "town",
    "name_ar": "نهاريا",
    "name_en": "Nahariyya",
    "alt_names": ["نهاريّا", "نهاريا", "Nahariya", "Nahariyya"],
    "district": "Acre Subdistrict",
    "governorate": "Northern District (Israel)",
    "latitude": 33.0148724,
    "longitude": 35.1016842
  },
  {
    "source": "nominatim",
    "feature_class": "place",
    "feature_code": "town",
    "name_ar": "روش بينا",
    "name_en": "Rosh Pina",
    "alt_names": ["روش_بينا", "Rosh Pina", "Rosh Pinna"],
    "district": "Safed Subdistrict",
    "governorate": "Northern District (Israel)",
    "latitude": 32.968215,
    "longitude": 35.5438245
  },
  {
    "source": "nominatim",
    "feature_class": "place",
    "feature_code": "village",
    "name_ar": "مرجليوت",
    "name_en": "Margaliot",
    "alt_names": ["Margaliot", "Margaliyot"],
    "district": "Safed Subdistrict",
    "governorate": "Northern District (Israel)",
    "latitude": 33.2148047,
    "longitude": 35.5444859
  },
  {
    "source": "manual",
    "feature_class": "place",
    "feature_code": "village",
    "name_ar": "المنارة",
    "name_en": "Menara",
    "alt_names": ["منارة", "Menara", "Manara", "Al Manara", "Al Manarah"],
    "district": "Safed Subdistrict",
    "governorate": "Northern District (Israel)",
    "latitude": 33.19691,
    "longitude": 35.54393
  },
  {
    "source": "nominatim",
    "feature_class": "place",
    "feature_code": "town",
    "name_ar": "شلومي",
    "name_en": "Shlomi",
    "alt_names": ["Shlomi"],
    "district": "Acre Subdistrict",
    "governorate": "Northern District (Israel)",
    "latitude": 33.0760504,
    "longitude": 35.1485842
  },
  {
    "source": "nominatim",
    "feature_class": "place",
    "feature_code": "town",
    "name_ar": "صفد",
    "name_en": "Safed",
    "alt_names": ["Safed", "Tzfat"],
    "district": "Safed Subdistrict",
    "governorate": "Northern District (Israel)",
    "latitude": 32.9646301,
    "longitude": 35.502451
  }
]
